{
    "mapArea": {
        "upperLeft": {
            "lat": 50.8,
            "lng": 6.1
        },
        "lowerRight": {
            "lat": 48.9,
            "lng": 8.5
        }
    },
    "hospitals": [
        {
            "id": 1,
            "name": "Landstuhl Regional Medical Center",
            "location": {
                "lat": 49.4042184,
                "lng": 7.5602942
            },
            "capacity": 3
        },
        {
            "id": 2,
            "name": "Ev. u. Johanniter-Krankenhaus Dierdorf/Selters",
            "location": {
                "lat": 50.5293206,
                "lng": 7.7592335
            },
            "capacity": 19
        },
        {
            "id": 3,
            "name": "Konduktive Förderung",
            "location": {
                "lat": 50.4374574,
                "lng": 7.402254
            },
            "capacity": 21
        },
        {
            "id": 4,
            "name": "Pfalzklinikum Standort Rockenhausen",
            "location": {
                "lat": 49.6304177,
                "lng": 7.8143081
            },
            "capacity": 10
        },
        {
            "id": 5,
            "name": "Klinisches Zentrum",
            "location": {
                "lat": 50.4285578,
                "lng": 7.3964527
            },
            "capacity": 30
        },
        {
            "id": 6,
            "name": "Rhein-Mosel-Fachklinik",
            "location": {
                "lat": 50.4277402,
                "lng": 7.3977023
            },
            "capacity": 4
        },
        {
            "id": 7,
            "name": "Rheinhessen-Fachklinik Mainz",
            "location": {
                "lat": 50.0153919,
                "lng": 8.239119
            },
            "capacity": 27
        },
        {
            "id": 8,
            "name": "Kinderneurologisches Zentrum Mainz",
            "location": {
                "lat": 50.0154362,
                "lng": 8.2398352
            },
            "capacity": 20
        },
        {
            "id": 9,
            "name": "Asklepios Südpfalzklinik Kandel",
            "location": {
                "lat": 49.0861819,
                "lng": 8.2008986
            },
            "capacity": 15
        },
        {
            "id": 10,
            "name": "Klinikum der Stadt Ludwigshafen",
            "location": {
                "lat": 49.48982,
                "lng": 8.4258073
            },
            "capacity": 19
        },
        {
            "id": 11,
            "name": "Evangelisches Stift Sankt Martin",
            "location": {
                "lat": 50.3481962,
                "lng": 7.5933444
            },
            "capacity": 21
        },
        {
            "id": 12,
            "name": "Katholisches Klinikum Marienhof Koblenz",
            "location": {
                "lat": 50.359282,
                "lng": 7.5716202
            },
            "capacity": 4
        },
        {
            "id": 13,
            "name": "Diakonissen-Stiftungs-Krankenhaus Speyer (Haus Hilgardstraße)",
            "location": {
                "lat": 49.3109941,
                "lng": 8.4346812
            },
            "capacity": 8
        },
        {
            "id": 14,
            "name": "Barmherzige Brüder Saffig",
            "location": {
                "lat": 50.3778925,
                "lng": 7.4195807
            },
            "capacity": 12
        },
        {
            "id": 15,
            "name": "Klinik Nette-Gut für Forensische Psychiatrie",
            "location": {
                "lat": 50.4243073,
                "lng": 7.4349691
            },
            "capacity": 14
        },
        {
            "id": 16,
            "name": "Klinikum Mutterhaus der Borromäerinnen Trier",
            "location": {
                "lat": 49.7543938,
                "lng": 6.6310015
            },
            "capacity": 23
        },
        {
            "id": 17,
            "name": "Nardiniklinikum St. Elisabeth",
            "location": {
                "lat": 49.2463611,
                "lng": 7.3630101
            },
            "capacity": 19
        },
        {
            "id": 18,
            "name": "Kemperhof",
            "location": {
                "lat": 50.3561716,
                "lng": 7.565562
            },
            "capacity": 12
        },
        {
            "id": 19,
            "name": "Marienhaus Klinikum Hetzelstift Neustadt/Weinstraße",
            "location": {
                "lat": 49.3461013,
                "lng": 8.1502651
            },
            "capacity": 13
        },
        {
            "id": 20,
            "name": "Klinikum Landau-Südliche Weinstraße",
            "location": {
                "lat": 49.205821,
                "lng": 8.1040769
            },
            "capacity": 6
        },
        {
            "id": 21,
            "name": "Diakonie-Krankenhaus",
            "location": {
                "lat": 49.7945675,
                "lng": 7.455733
            },
            "capacity": 25
        },
        {
            "id": 22,
            "name": "Westpfalz-Klinikum",
            "location": {
                "lat": 49.4414066,
                "lng": 7.7563994
            },
            "capacity": 22
        },
        {
            "id": 23,
            "name": "St. Elisabeth Krankenhaus",
            "location": {
                "lat": 50.0001647,
                "lng": 6.8921278
            },
            "capacity": 15
        },
        {
            "id": 24,
            "name": "Stadtklinik Frankenthal",
            "location": {
                "lat": 49.5427524,
                "lng": 8.3311728
            },
            "capacity": 24
        },
        {
            "id": 25,
            "name": "Hunsrück Klinik",
            "location": {
                "lat": 49.980508,
                "lng": 7.5174576
            },
            "capacity": 29
        },
        {
            "id": 26,
            "name": "Herz-Jesu-Krankenhaus Dernbach",
            "location": {
                "lat": 50.4529747,
                "lng": 7.7856144
            },
            "capacity": 16
        },
        {
            "id": 27,
            "name": "Dr. v. Ehrenwall'sche Klinik",
            "location": {
                "lat": 50.539677,
                "lng": 7.0914368
            },
            "capacity": 3
        },
        {
            "id": 28,
            "name": "St. Annastiftskrankenhaus",
            "location": {
                "lat": 49.4633362,
                "lng": 8.4310204
            },
            "capacity": 18
        },
        {
            "id": 29,
            "name": "Lutrina-Klinik",
            "location": {
                "lat": 49.4418656,
                "lng": 7.7723088
            },
            "capacity": 23
        },
        {
            "id": 30,
            "name": "DRK Krankenhaus Kirchen",
            "location": {
                "lat": 50.8061404,
                "lng": 7.8792284
            },
            "capacity": 8
        },
        {
            "id": 31,
            "name": "St. Nikolaus-Stiftshospital",
            "location": {
                "lat": 50.4403691,
                "lng": 7.4047616
            },
            "capacity": 9
        },
        {
            "id": 32,
            "name": "Krankenhaus Maria Hilf Bad Neuenahr-Ahrweiler",
            "location": {
                "lat": 50.5406049,
                "lng": 7.1272646
            },
            "capacity": 13
        },
        {
            "id": 33,
            "name": "BDH-Klinik Vallendar",
            "location": {
                "lat": 50.3998574,
                "lng": 7.6116395
            },
            "capacity": 5
        },
        {
            "id": 34,
            "name": "Evangelisches Krankenhaus Dierdorf",
            "location": {
                "lat": 50.5480774,
                "lng": 7.6617135
            },
            "capacity": 4
        },
        {
            "id": 35,
            "name": "Krankenhaus Maria Stern",
            "location": {
                "lat": 50.5739473,
                "lng": 7.2329643
            },
            "capacity": 14
        },
        {
            "id": 36,
            "name": "Klinikum Worms",
            "location": {
                "lat": 49.6493428,
                "lng": 8.3197991
            },
            "capacity": 16
        },
        {
            "id": 37,
            "name": "Brüderkrankenhaus Montabaur",
            "location": {
                "lat": 50.431676,
                "lng": 7.8320138
            },
            "capacity": 10
        },
        {
            "id": 38,
            "name": "DRK Krankenhaus Alzey",
            "location": {
                "lat": 49.746157,
                "lng": 8.1037983
            },
            "capacity": 15
        },
        {
            "id": 39,
            "name": "Krankenhaus Maria Hilf",
            "location": {
                "lat": 50.1932148,
                "lng": 6.8321818
            },
            "capacity": 6
        },
        {
            "id": 40,
            "name": "Sankt Vincentius Krankenhaus",
            "location": {
                "lat": 49.3160554,
                "lng": 8.4213194
            },
            "capacity": 9
        },
        {
            "id": 41,
            "name": "Städtisches Krankenhaus Pirmasens",
            "location": {
                "lat": 49.1930324,
                "lng": 7.6176774
            },
            "capacity": 7
        },
        {
            "id": 42,
            "name": "St. Elisabeth Krankenhaus Gerolstein",
            "location": {
                "lat": 50.22645,
                "lng": 6.6652663
            },
            "capacity": 21
        },
        {
            "id": 43,
            "name": "St. Antonius Krankenhaus",
            "location": {
                "lat": 50.7818011,
                "lng": 7.7324978
            },
            "capacity": 17
        },
        {
            "id": 44,
            "name": "DRK Kamillus Klinik Asbach",
            "location": {
                "lat": 50.6679294,
                "lng": 7.4240214
            },
            "capacity": 3
        },
        {
            "id": 45,
            "name": "DRK Krankenhaus Hachenburg",
            "location": {
                "lat": 50.6564733,
                "lng": 7.8303447
            },
            "capacity": 25
        },
        {
            "id": 46,
            "name": "Brohltal-Klinik St. Josef",
            "location": {
                "lat": 50.4559906,
                "lng": 7.2789573
            },
            "capacity": 11
        },
        {
            "id": 47,
            "name": "Nardini Klinikum St. Johannis",
            "location": {
                "lat": 49.3990394,
                "lng": 7.5824246
            },
            "capacity": 12
        },
        {
            "id": 48,
            "name": "Westpfalz-Klinikum Standort Kirchheimbolanden",
            "location": {
                "lat": 49.6588375,
                "lng": 8.0076943
            },
            "capacity": 16
        },
        {
            "id": 49,
            "name": "Krankenhaus Rockenhausen",
            "location": {
                "lat": 49.6307343,
                "lng": 7.8144719
            },
            "capacity": 12
        },
        {
            "id": 50,
            "name": "ACURA Rheuma-Akutzentrum",
            "location": {
                "lat": 49.8403356,
                "lng": 7.8556199
            },
            "capacity": 24
        },
        {
            "id": 51,
            "name": "MEDIAN Kliniken Daun Altburg",
            "location": {
                "lat": 50.1596132,
                "lng": 6.8441918
            },
            "capacity": 7
        },
        {
            "id": 52,
            "name": "Krankenhaus St. Marienwörth",
            "location": {
                "lat": 49.8474727,
                "lng": 7.8620404
            },
            "capacity": 15
        },
        {
            "id": 53,
            "name": "Kreiskrankenhaus Grünstadt",
            "location": {
                "lat": 49.5637741,
                "lng": 8.1578588
            },
            "capacity": 4
        },
        {
            "id": 54,
            "name": "Pfalzklinikum Klingenmünster",
            "location": {
                "lat": 49.1502328,
                "lng": 8.0143616
            },
            "capacity": 13
        },
        {
            "id": 55,
            "name": "Brüderhaus Koblenz",
            "location": {
                "lat": 50.3536069,
                "lng": 7.5868732
            },
            "capacity": 14
        },
        {
            "id": 56,
            "name": "St. Josef-Krankenhaus Zell",
            "location": {
                "lat": 50.0236154,
                "lng": 7.1679618
            },
            "capacity": 13
        },
        {
            "id": 57,
            "name": "Heilig Geist",
            "location": {
                "lat": 50.232458,
                "lng": 7.5874522
            },
            "capacity": 14
        },
        {
            "id": 58,
            "name": "Heilig-Geist-Hospital Bingen",
            "location": {
                "lat": 49.9684253,
                "lng": 7.8967741
            },
            "capacity": 9
        },
        {
            "id": 59,
            "name": "Baumholder Army Health Clinic",
            "location": {
                "lat": 49.6154211,
                "lng": 7.3291758
            },
            "capacity": 12
        },
        {
            "id": 60,
            "name": "Gesundheitszentrum Glantal",
            "location": {
                "lat": 49.7065332,
                "lng": 7.6768326
            },
            "capacity": 2
        },
        {
            "id": 61,
            "name": "Asklepios Südpfalzklinik Germersheim",
            "location": {
                "lat": 49.2200087,
                "lng": 8.365767
            },
            "capacity": 4
        },
        {
            "id": 62,
            "name": "Marienhaus Klinikum Mainz",
            "location": {
                "lat": 49.9892976,
                "lng": 8.2707191
            },
            "capacity": 19
        },
        {
            "id": 63,
            "name": "BG Klinik Ludwigshafen",
            "location": {
                "lat": 49.4854583,
                "lng": 8.388468
            },
            "capacity": 20
        },
        {
            "id": 64,
            "name": "Westpfalz-Klinikum Standort Kusel",
            "location": {
                "lat": 49.5466167,
                "lng": 7.3773385
            },
            "capacity": 13
        },
        {
            "id": 65,
            "name": "Marienhaus Klinikum St. Elisabeth Neuwied",
            "location": {
                "lat": 50.4275674,
                "lng": 7.471172
            },
            "capacity": 17
        },
        {
            "id": 66,
            "name": "Evangelisches Krankenhaus Bad Dürkheim",
            "location": {
                "lat": 49.4665575,
                "lng": 8.1791839
            },
            "capacity": 14
        },
        {
            "id": 67,
            "name": "Privatklinik Bad Gleisweiler",
            "location": {
                "lat": 49.242326,
                "lng": 8.0602199
            },
            "capacity": 24
        },
        {
            "id": 68,
            "name": "Marienhaus Klinikum Eifel Bitburg",
            "location": {
                "lat": 49.9717121,
                "lng": 6.5263986
            },
            "capacity": 30
        },
        {
            "id": 69,
            "name": "Klinikum Idar-Oberstein",
            "location": {
                "lat": 49.7164349,
                "lng": 7.3213609
            },
            "capacity": 27
        },
        {
            "id": 70,
            "name": "DRK-Elisabeth-Krankenhaus Birkenfeld",
            "location": {
                "lat": 49.6456171,
                "lng": 7.1598129
            },
            "capacity": 27
        },
        {
            "id": 71,
            "name": "St. Vincenz-Krankenhaus",
            "location": {
                "lat": 50.3747199,
                "lng": 8.0089032
            },
            "capacity": 5
        },
        {
            "id": 72,
            "name": "Paulinenstift",
            "location": {
                "lat": 50.2024581,
                "lng": 7.8559045
            },
            "capacity": 21
        },
        {
            "id": 73,
            "name": "Cusanus-Krankenhaus Bernkastel-Kues",
            "location": {
                "lat": 49.9155607,
                "lng": 7.0629135
            },
            "capacity": 17
        },
        {
            "id": 74,
            "name": "Krankenhaus Zum Guten Hirten",
            "location": {
                "lat": 49.487739,
                "lng": 8.3844303
            },
            "capacity": 14
        },
        {
            "id": 75,
            "name": "Kreiskrankenhaus St. Franziskus Saarburg",
            "location": {
                "lat": 49.6028926,
                "lng": 6.5382056
            },
            "capacity": 19
        },
        {
            "id": 76,
            "name": "St. Josef-Krankenhaus Hermeskeil",
            "location": {
                "lat": 49.6575672,
                "lng": 6.9474417
            },
            "capacity": 2
        },
        {
            "id": 77,
            "name": "Fachklinik Katzenelnbogen",
            "location": {
                "lat": 50.2686196,
                "lng": 7.9812932
            },
            "capacity": 23
        },
        {
            "id": 78,
            "name": "Haus Pella",
            "location": {
                "lat": 49.8362133,
                "lng": 7.8643364
            },
            "capacity": 20
        },
        {
            "id": 81,
            "name": "Vinzentius-Krankenhaus",
            "location": {
                "lat": 49.1901089,
                "lng": 8.1143065
            },
            "capacity": 26
        },
        {
            "id": 82,
            "name": "Klinik Bad Bergzabern",
            "location": {
                "lat": 49.106257,
                "lng": 8.0000136
            },
            "capacity": 25
        },
        {
            "id": 83,
            "name": "Marienkrankenhaus Cochem",
            "location": {
                "lat": 50.1555986,
                "lng": 7.1794418
            },
            "capacity": 23
        },
        {
            "id": 84,
            "name": "St. Elisabeth Krankenhaus Lahnstein",
            "location": {
                "lat": 50.3052488,
                "lng": 7.6090213
            },
            "capacity": 28
        },
        {
            "id": 85,
            "name": "DRK Fachklinik Bad Neuenahr",
            "location": {
                "lat": 50.5435323,
                "lng": 7.1382406
            },
            "capacity": 19
        },
        {
            "id": 86,
            "name": "Klinikum Mutterhaus der Borromäerinnen Nord",
            "location": {
                "lat": 49.7621345,
                "lng": 6.6436903
            },
            "capacity": 28
        },
        {
            "id": 99,
            "name": "Verbundkrankenhaus Linz-Remagen",
            "location": {
                "lat": 50.5644906,
                "lng": 7.319102
            },
            "capacity": 29
        },
        {
            "id": 100,
            "name": "Krankenhaus der Barmherzigen Brüder Trier",
            "location": {
                "lat": 49.7625602,
                "lng": 6.6399032
            },
            "capacity": 17
        },
        {
            "id": 101,
            "name": "Klinikum Worms",
            "location": {
                "lat": 49.6493847,
                "lng": 8.3197991
            },
            "capacity": 2
        },
        {
            "id": 102,
            "name": "Haus DRK",
            "location": {
                "lat": 50.4294907,
                "lng": 7.4648367
            },
            "capacity": 11
        },
        {
            "id": 103,
            "name": "Gemeinschaftsklinikum Koblenz-Mayen St. Elisabeth Mayen",
            "location": {
                "lat": 50.3252384,
                "lng": 7.2182312
            },
            "capacity": 12
        },
        {
            "id": 104,
            "name": "St. Elisabeth-Krankenhaus",
            "location": {
                "lat": 49.2415961,
                "lng": 7.6342418
            },
            "capacity": 22
        },
        {
            "id": 105,
            "name": "St. Joseph-Krankenhaus",
            "location": {
                "lat": 50.2118978,
                "lng": 6.4101199
            },
            "capacity": 23
        },
        {
            "id": 106,
            "name": "Krankenhaus der Barmherzigen Brüder Trier",
            "location": {
                "lat": 49.762664,
                "lng": 6.6404278
            },
            "capacity": 24
        },
        {
            "id": 107,
            "name": "Universitätsmedizin Mainz",
            "location": {
                "lat": 49.9923335,
                "lng": 8.2595793
            },
            "capacity": 19
        },
        {
            "id": 108,
            "name": "DRK-Krankenhaus Altenkirchen",
            "location": {
                "lat": 50.6828998,
                "lng": 7.6304726
            },
            "capacity": 17
        },
        {
            "id": 109,
            "name": "St. Marienkrankenhaus",
            "location": {
                "lat": 49.4575866,
                "lng": 8.4088909
            },
            "capacity": 2
        },
        {
            "id": 110,
            "name": "Bundeswehrzentralkrankenhaus Koblenz",
            "location": {
                "lat": 50.3681587,
                "lng": 7.543493
            },
            "capacity": 15
        },
        {
            "id": 111,
            "name": "Geriatrische Fachklinik Rheinhessen-Nahe",
            "location": {
                "lat": 49.810787,
                "lng": 7.8457355
            },
            "capacity": 27
        }
    ],
    "rescueStations": [
        {
            "id": "station_1",
            "name": "Werkfeuer- und Rettungswache BASF Ludwigshafen",
            "location": {
                "lat": 49.495644,
                "lng": 8.4283467
            },
            "full_address": "Carl-Bosch-Straße",
            "city": "Ludwigshafen am Rhein"
        },
        {
            "id": "station_2",
            "name": "Rettungswache Johanniter Koblenz",
            "location": {
                "lat": 50.354799,
                "lng": 7.5868482
            },
            "full_address": "Kardinal-Krementz-Straße 18",
            "city": "Koblenz"
        },
        {
            "id": "station_3",
            "name": "DRK Westpfalzklinikum Kaiserslautern",
            "location": {
                "lat": 49.43987544371878,
                "lng": 7.777862383473409
            },
            "full_address": "Augustastrasse 16-24",
            "city": "Kaiserslautern"
        },
        {
            "id": "station_4",
            "name": "Notarztstandort Brüderkrankenhaus Trier",
            "location": {
                "lat": 49.7628935,
                "lng": 6.6412751
            },
            "full_address": "Glockengießerstraße",
            "city": "Trier"
        },
        {
            "id": "station_5",
            "name": "Notarztstandort Bernkastel-Kues",
            "location": {
                "lat": 49.9162818,
                "lng": 7.0626654
            },
            "full_address": "Auf der Trift 1 A",
            "city": "Bernkastel-Kues"
        },
        {
            "id": "station_6",
            "name": "Malteser Rettungswache Koblenz",
            "location": {
                "lat": 50.3817305,
                "lng": 7.5984954
            },
            "full_address": "Ernst-Sachs-Straße 18",
            "city": "Koblenz"
        },
        {
            "id": "station_7",
            "name": "Rettungswache Speicher",
            "location": {
                "lat": 49.9378308,
                "lng": 6.6415415
            },
            "full_address": "Kapellenstraße",
            "city": "Speicher"
        },
        {
            "id": "station_8",
            "name": "Rettungswache Bad Kreuznach 3",
            "location": {
                "lat": 49.8434734,
                "lng": 7.8725329
            },
            "full_address": "Bosenheimer Straße",
            "city": "Bad Kreuznach"
        },
        {
            "id": "station_9",
            "name": "Rettungswache Germersheim",
            "location": {
                "lat": 49.2119523,
                "lng": 8.3640984
            },
            "full_address": "Hans-Graf-Sponeck-Straße 33",
            "city": "Germersheim"
        },
        {
            "id": "station_10",
            "name": "DRK Landstuhl",
            "location": {
                "lat": 49.4153299,
                "lng": 7.578469323841577
            },
            "full_address": "Am Feuerwehrturm 6",
            "city": "Landstuhl"
        },
        {
            "id": "station_11",
            "name": "Rettungswache Weißenthurm",
            "location": {
                "lat": 50.4182315,
                "lng": 7.4514871
            },
            "full_address": "Hauptstraße",
            "city": "Weißenthurm"
        },
        {
            "id": "station_12",
            "name": "Notarztstandort Senheim",
            "location": {
                "lat": 50.0830689,
                "lng": 7.210899
            },
            "full_address": "Zeller Straße 23",
            "city": "Senheim"
        },
        {
            "id": "station_13",
            "name": "Rettungswache Alzey",
            "location": {
                "lat": 49.7553415,
                "lng": 8.1155718
            },
            "full_address": "Albiger Straße",
            "city": "Alzey"
        },
        {
            "id": "station_14",
            "name": "Rettungswache Idar-Oberstein",
            "location": {
                "lat": 49.6995026,
                "lng": 7.3358237
            },
            "full_address": "Schönlautenbach 17",
            "city": "Idar-Oberstein"
        },
        {
            "id": "station_15",
            "name": "Rettungswache Worms",
            "location": {
                "lat": 49.6369855,
                "lng": 8.3658428
            },
            "full_address": "Eulenburgstraße",
            "city": "Worms"
        },
        {
            "id": "station_16",
            "name": "Rettungswache Rülzheim",
            "location": {
                "lat": 49.1634502,
                "lng": 8.2949436
            },
            "full_address": "Im Speyerer Tal 2",
            "city": "Rülzheim"
        },
        {
            "id": "station_17",
            "name": "Rettungswache Birkenfeld",
            "location": {
                "lat": 49.6460118,
                "lng": 7.1616992
            },
            "full_address": "Trierer Straße",
            "city": "Birkenfeld"
        },
        {
            "id": "station_18",
            "name": "Rettungswache Kastellaun",
            "location": {
                "lat": 50.0725494,
                "lng": 7.4401689
            },
            "full_address": "Perlengasse 6 A",
            "city": "Kastellaun"
        },
        {
            "id": "station_19",
            "name": "ASB Lehrrettungswache Bad Kreuznach",
            "location": {
                "lat": 49.837063,
                "lng": 7.8686088
            },
            "full_address": "Mannheimer Straße",
            "city": "Bad Kreuznach"
        },
        {
            "id": "station_20",
            "name": "Rettungswache Niederzissen",
            "location": {
                "lat": 50.4516012,
                "lng": 7.222238
            },
            "full_address": "Im Joch 1",
            "city": "Niederzissen"
        },
        {
            "id": "station_21",
            "name": "DRK Otterbach",
            "location": {
                "lat": 49.48860245,
                "lng": 7.724857606561068
            },
            "full_address": "Ziegelhütterstraße 51",
            "city": "Otterbach"
        },
        {
            "id": "station_22",
            "name": "ASB Kaiserslautern",
            "location": {
                "lat": 49.4454841,
                "lng": 7.749821190659336
            },
            "full_address": "Berlinerstr. 30",
            "city": "Kaiserslautern"
        },
        {
            "id": "station_23",
            "name": "MHD Kaiserslautern",
            "location": {
                "lat": 49.44963315,
                "lng": 7.779051943395011
            },
            "full_address": "Mainzer Straße 25",
            "city": "Kaiserslautern"
        },
        {
            "id": "station_24",
            "name": "Rettungswache Schönenberg-Kübelberg",
            "location": {
                "lat": 49.4088965,
                "lng": 7.3780315
            },
            "full_address": "Rathausstraße 10",
            "city": "Schönenberg-Kübelberg"
        },
        {
            "id": "station_25",
            "name": "Rettungswache DRK Pirmasens",
            "location": {
                "lat": 49.1992416,
                "lng": 7.5940284
            },
            "full_address": "Adam-Müller-Straße 43",
            "city": "Pirmasens"
        },
        {
            "id": "station_26",
            "name": "Rettungswache Landau",
            "location": {
                "lat": 49.2026302,
                "lng": 8.1162223
            },
            "full_address": "Haardtstraße 4a",
            "city": "Landau in der Pfalz"
        },
        {
            "id": "station_27",
            "name": "Notarztwache Dahn",
            "location": {
                "lat": 49.1522636,
                "lng": 7.7810374
            },
            "full_address": "Schulstraße 29",
            "city": "Dahn"
        },
        {
            "id": "station_28",
            "name": "DRK-Rettungswache Speyer",
            "location": {
                "lat": 49.3123683,
                "lng": 8.4417795
            },
            "full_address": "Karl-Leiling-Allee 5",
            "city": "Speyer"
        },
        {
            "id": "station_29",
            "name": "Deutsches Rotes Kreuz",
            "location": {
                "lat": 49.4351598,
                "lng": 8.3613279
            },
            "full_address": "Speyerer Straße 143",
            "city": "Mutterstadt"
        },
        {
            "id": "station_30",
            "name": "Rettungswache Ludwigshafen",
            "location": {
                "lat": 49.4601523,
                "lng": 8.4180486
            },
            "full_address": "August-Heller-Straße 12",
            "city": "Ludwigshafen am Rhein"
        },
        {
            "id": "station_31",
            "name": "Rettungswache Linz am Rhein",
            "location": {
                "lat": 50.5640421,
                "lng": 7.3195034
            },
            "full_address": "Magdalena-Daemen-Straße",
            "city": "Linz am Rhein"
        },
        {
            "id": "station_32",
            "name": "Rettungswache 4 Mainz",
            "location": {
                "lat": 49.9743275,
                "lng": 8.2357905
            },
            "full_address": "Hans-Böckler-Straße 109",
            "city": "Mainz"
        },
        {
            "id": "station_33",
            "name": "Rettungswache Altenkirchen",
            "location": {
                "lat": 50.6890308,
                "lng": 7.6251662
            },
            "full_address": "Kölner Straße",
            "city": "Altenkirchen"
        },
        {
            "id": "station_34",
            "name": "Notarztstandort Boppard",
            "location": {
                "lat": 50.2323446,
                "lng": 7.5870225
            },
            "full_address": "Niederstadtstraße",
            "city": "Boppard"
        },
        {
            "id": "station_35",
            "name": "Rettungswache ASB Pirmasens",
            "location": {
                "lat": 49.1927565,
                "lng": 7.6156095
            },
            "full_address": "Pettenkoferstraße 13-15",
            "city": "Pirmasens"
        },
        {
            "id": "station_36",
            "name": "Rettungswache JUH/MHD Ludwigshafen",
            "location": {
                "lat": 49.491644,
                "lng": 8.3981104
            },
            "full_address": "Bexbacher Straße",
            "city": "Ludwigshafen am Rhein"
        },
        {
            "id": "station_37",
            "name": "Rettungswache ASB Ludwigshafen",
            "location": {
                "lat": 49.4785092,
                "lng": 8.4231703
            },
            "full_address": "Brunhildenstraße 5 A",
            "city": "Ludwigshafen am Rhein"
        },
        {
            "id": "station_38",
            "name": "Rettungswache ASB Grünstadt",
            "location": {
                "lat": 49.5694938,
                "lng": 8.1685415
            },
            "full_address": "Sankt-Peter-Straße 23",
            "city": "Grünstadt"
        },
        {
            "id": "station_39",
            "name": "Notarztstandort Montabaur",
            "location": {
                "lat": 50.4311831,
                "lng": 7.8309052
            },
            "full_address": "Ignatius-Lötschert-Straße",
            "city": "Montabaur"
        },
        {
            "id": "station_40",
            "name": "Rettungswache ASB Idar-Oberstein",
            "location": {
                "lat": 49.7331317,
                "lng": 7.2837585
            },
            "full_address": "Tiefensteiner Straße 159",
            "city": "Idar-Oberstein"
        },
        {
            "id": "station_41",
            "name": "Rettungswache 3 Mainz",
            "location": {
                "lat": 49.9895362,
                "lng": 8.2727171
            },
            "full_address": "Jägerstraße 37",
            "city": "Mainz"
        },
        {
            "id": "station_42",
            "name": "Rettungswache Asbach",
            "location": {
                "lat": 50.6684432,
                "lng": 7.4227975
            },
            "full_address": "Hospitalstraße 8",
            "city": "Drinhausen"
        },
        {
            "id": "station_43",
            "name": "Rettungswache 1 Mainz",
            "location": {
                "lat": 49.9980493,
                "lng": 8.2568674
            },
            "full_address": "Binger Straße 25",
            "city": "Mainz"
        },
        {
            "id": "station_44",
            "name": "Deutsches Rotes Kreuz",
            "location": {
                "lat": 50.5783724,
                "lng": 7.7410108
            },
            "full_address": "Schwimmbadweg 2",
            "city": "Herschbach"
        },
        {
            "id": "station_45",
            "name": "Rettungswache Gelsdorf",
            "location": {
                "lat": 50.5803689,
                "lng": 7.0324382
            },
            "full_address": "Altenahrer Straße",
            "city": "Grafschaft"
        },
        {
            "id": "station_46",
            "name": "Rettungswache 2 Mainz",
            "location": {
                "lat": 50.0119839,
                "lng": 8.2473383
            },
            "full_address": "Hattenbergstraße 5",
            "city": "Mainz"
        },
        {
            "id": "station_47",
            "name": "Rettungswache 6 Mainz",
            "location": {
                "lat": 49.9935714,
                "lng": 8.2546178
            },
            "full_address": "Reisingerweg",
            "city": "Mainz"
        },
        {
            "id": "station_48",
            "name": "Rettungswache Neuwied-Stadt",
            "location": {
                "lat": 50.4289369,
                "lng": 7.4677586
            },
            "full_address": "Museumstraße 6",
            "city": "Neuwied"
        },
        {
            "id": "station_49",
            "name": "DRK-Rettungswache Frankenthal",
            "location": {
                "lat": 49.5428366,
                "lng": 8.3317736
            },
            "full_address": "Elsa-Brändström-Straße",
            "city": "Frankenthal (Pfalz)"
        },
        {
            "id": "station_50",
            "name": "Rettungswache Walsdorf",
            "location": {
                "lat": 50.2784046,
                "lng": 6.7112309
            },
            "full_address": "Koblenzer Straße 9",
            "city": "Zilsdorf"
        },
        {
            "id": "station_51",
            "name": "Rettungswache Neumagen-Dhron",
            "location": {
                "lat": 49.8571015,
                "lng": 6.8966115
            },
            "full_address": "Römerstraße 3",
            "city": "Neumagen-Dhron"
        },
        {
            "id": "station_52",
            "name": "Rettungswache Diez",
            "location": {
                "lat": 50.3744999,
                "lng": 7.9939621
            },
            "full_address": "St.-Peter-Straße",
            "city": "Heistenbach"
        },
        {
            "id": "station_53",
            "name": "DRK Ortsverein Bad Marienberg",
            "location": {
                "lat": 50.6627067,
                "lng": 7.976209
            },
            "full_address": "Triftstraße 12",
            "city": "Nisterau"
        },
        {
            "id": "station_54",
            "name": "Rettungswache ASB",
            "location": {
                "lat": 49.0950209,
                "lng": 8.0069222
            },
            "full_address": "Im Wernersgrund",
            "city": "Bad Bergzabern"
        },
        {
            "id": "station_55",
            "name": "Rettungswache DRK",
            "location": {
                "lat": 49.1066312,
                "lng": 7.9993153
            },
            "full_address": "Danziger Straße",
            "city": "Bad Bergzabern"
        },
        {
            "id": "station_56",
            "name": "Rettungswache ASB",
            "location": {
                "lat": 49.2457487,
                "lng": 7.3537013
            },
            "full_address": "Friedrich-Ebert-Straße 40",
            "city": "Zweibrücken"
        },
        {
            "id": "station_57",
            "name": "Johanniter-Unfall-Hilfe Ordsverband Wöllstein",
            "location": {
                "lat": 49.815231,
                "lng": 7.9564536
            },
            "full_address": "Ziegelhüttenstraße 9",
            "city": "Wöllstein"
        },
        {
            "id": "station_58",
            "name": "Berufsfeuerwehr Trier",
            "location": {
                "lat": 49.74675788456911,
                "lng": 6.628839270472065
            },
            "full_address": "Saarbrücker Straße",
            "city": "Trier"
        },
        {
            "id": "station_59",
            "name": "Medical Center Nürburgring",
            "location": {
                "lat": 50.33379394864191,
                "lng": 6.943803651184746
            },
            "full_address": "Kurt-Bosch-Straße",
            "city": "Nürburg"
        },
        {
            "id": "station_60",
            "name": "Deutsches Rotes Kreuz OV Kirchberg",
            "location": {
                "lat": 49.94585123665939,
                "lng": 7.405464847317517
            },
            "full_address": "Schulstraße 9",
            "city": "Kirchberg"
        },
        {
            "id": "station_61",
            "name": "Rettungswache Koblenz",
            "location": {
                "lat": 50.36038603633951,
                "lng": 7.569166413580248
            },
            "full_address": "Ferdinand-Sauerbruch-Straße",
            "city": "Koblenz"
        },
        {
            "id": "station_62",
            "name": "Rettungswache Prüm",
            "location": {
                "lat": 50.21245246915436,
                "lng": 6.409287936641959
            },
            "full_address": "Franz-Meyer-Weg 4",
            "city": "Prüm"
        },
        {
            "id": "station_63",
            "name": "Rettungswache Annweiler",
            "location": {
                "lat": 49.20271119781311,
                "lng": 7.960530380848738
            },
            "full_address": "Spitalstraße 10",
            "city": "Annweiler am Trifels"
        },
        {
            "id": "station_65",
            "name": "Rettungswache Emmelshausen",
            "location": {
                "lat": 50.1555953,
                "lng": 7.548970199999999
            },
            "full_address": "Rhein-Mosel-Straße",
            "city": "Emmelshausen"
        },
        {
            "id": "station_66",
            "name": "Rettungswache Hachenburg",
            "location": {
                "lat": 50.655748889468974,
                "lng": 7.827986288644739
            },
            "full_address": "Theodor-Körner-Straße",
            "city": "Hachenburg"
        },
        {
            "id": "station_67",
            "name": "Rettungswache Haßloch",
            "location": {
                "lat": 49.35561401331069,
                "lng": 8.254520465015903
            },
            "full_address": "Rotkreuzstraße 9",
            "city": "Haßloch"
        },
        {
            "id": "station_68",
            "name": "Rettungswache Pferdsfeld",
            "location": {
                "lat": 49.862586250934065,
                "lng": 7.589386097793033
            },
            "full_address": "K 39",
            "city": "Bad Sobernheim"
        },
        {
            "id": "station_69",
            "name": "Rettungswache Arzfeld",
            "location": {
                "lat": 50.08922847221996,
                "lng": 6.272769231481094
            },
            "full_address": "Rote-Kreuz-Straße 4",
            "city": "Arzfeld"
        },
        {
            "id": "station_70",
            "name": "Rettungswache Maximiliansau",
            "location": {
                "lat": 49.033773951778834,
                "lng": 8.28574277402969
            },
            "full_address": "Hermann-Quack-Straße 1",
            "city": "Wörth am Rhein"
        },
        {
            "id": "station_71",
            "name": "Rettungswache Höhr-Grenzhausen",
            "location": {
                "lat": 50.44221576561103,
                "lng": 7.663495985324143
            },
            "full_address": "Westerwaldstraße 22",
            "city": "Höhr-Grenzhausen"
        },
        {
            "id": "station_72",
            "name": "Rettungswache Ehrang",
            "location": {
                "lat": 49.80909464944435,
                "lng": 6.688674510350008
            },
            "full_address": "Franziskusstraße 33",
            "city": "Trier"
        },
        {
            "id": "station_73",
            "name": "Werkfeuerwehr BASF Ludwigshafen",
            "location": {
                "lat": 49.5260482651413,
                "lng": 8.412168449929943
            },
            "full_address": "Rheinstraße",
            "city": "Ludwigshafen am Rhein"
        },
        {
            "id": "station_74",
            "name": "Rettungswache Bad Sobernheim",
            "location": {
                "lat": 49.789866404059296,
                "lng": 7.6488263974378405
            },
            "full_address": "Breslauer Straße 19",
            "city": "Bad Sobernheim"
        },
        {
            "id": "station_75",
            "name": "Rettungswache Bad Kreuznach",
            "location": {
                "lat": 49.84848878516755,
                "lng": 7.8642965067215
            },
            "full_address": "Viktoriastraße",
            "city": "Bad Kreuznach"
        },
        {
            "id": "station_76",
            "name": "Rettungswache Ingelheim am Rhein",
            "location": {
                "lat": 49.982575050481564,
                "lng": 8.055830466815172
            },
            "full_address": "Max-Planck-Straße 3",
            "city": "Ingelheim am Rhein"
        },
        {
            "id": "station_77",
            "name": "Rettungswache Stromberg",
            "location": {
                "lat": 49.94755003552548,
                "lng": 7.788989545051883
            },
            "full_address": "Königsberger Straße 1c",
            "city": "Stromberg"
        },
        {
            "id": "station_78",
            "name": "Rettungswache Jünkerath",
            "location": {
                "lat": 50.350089562258205,
                "lng": 6.565527034671179
            },
            "full_address": "Auf dem Wehrt 38",
            "city": "Glaadt"
        },
        {
            "id": "station_79",
            "name": "Rettungswache Traben-Trarbach",
            "location": {
                "lat": 49.95823919842315,
                "lng": 7.124381232746757
            },
            "full_address": "Neue Straße 3",
            "city": "Traben-Trarbach"
        },
        {
            "id": "station_80",
            "name": "Deutsches Rotes Kreuz Rettungswache Wittlich",
            "location": {
                "lat": 50.00101221920594,
                "lng": 6.893958302244869
            },
            "full_address": "L 52",
            "city": "Wittlich"
        },
        {
            "id": "station_81",
            "name": "Rettungswache Daaden",
            "location": {
                "lat": 50.73693690080869,
                "lng": 7.9802408629712085
            },
            "full_address": "Saynische Straße 56",
            "city": "Daaden"
        },
        {
            "id": "station_82",
            "name": "Rettungswache Lambrecht",
            "location": {
                "lat": 49.36928259583958,
                "lng": 8.075032582286305
            },
            "full_address": "Gartenstraße",
            "city": "Lambrecht"
        },
        {
            "id": "station_83",
            "name": "DRK Eisenberg",
            "location": {
                "lat": 49.55859595,
                "lng": 8.087365750000004
            },
            "full_address": "Am Gielbrunnen 5",
            "city": "Eisenberg"
        },
        {
            "id": "station_84",
            "name": "Rettungswache Daun",
            "location": {
                "lat": 50.199653200426425,
                "lng": 6.826716885417876
            },
            "full_address": "Auf'm Weiher 8",
            "city": "Daun"
        },
        {
            "id": "station_85",
            "name": "Rettungswache Winterspelt",
            "location": {
                "lat": 50.21240349477981,
                "lng": 6.217921209459262
            },
            "full_address": "Auf der Buch 1",
            "city": "Eigelscheid"
        },
        {
            "id": "station_86",
            "name": "Rettungswache Neustadt a.d. Weinstraße",
            "location": {
                "lat": 49.3460485085602,
                "lng": 8.15250055569382
            },
            "full_address": "Grainstraße",
            "city": "Neustadt an der Weinstraße"
        },
        {
            "id": "station_87",
            "name": "Rettungswache Neuwied-Oberbieber",
            "location": {
                "lat": 50.46685966779198,
                "lng": 7.4890169650146445
            },
            "full_address": "Friedrich-Rech-Straße 24",
            "city": "Neuwied"
        },
        {
            "id": "station_88",
            "name": "Rettungswache Katzenelnbogen",
            "location": {
                "lat": 50.270585700000005,
                "lng": 7.97911255
            },
            "full_address": "Am Schulzentrum 7",
            "city": "Katzenelnbogen"
        },
        {
            "id": "station_89",
            "name": "Rettungswache Bendorf",
            "location": {
                "lat": 50.42167497404767,
                "lng": 7.576279779341964
            },
            "full_address": "Entengasse 3-5",
            "city": "Bendorf"
        },
        {
            "id": "station_90",
            "name": "Rettungswache Braubach",
            "location": {
                "lat": 50.27514040941151,
                "lng": 7.64188235624043
            },
            "full_address": "Obere Gartenstraße 12",
            "city": "Braubach"
        },
        {
            "id": "station_91",
            "name": "Rettungswache Hermeskeil",
            "location": {
                "lat": 49.657115850000004,
                "lng": 6.945998700000001
            },
            "full_address": "Alte Kirchstraße 26",
            "city": "Hermeskeil"
        },
        {
            "id": "station_92",
            "name": "Rettungswache Bundenthal",
            "location": {
                "lat": 49.10444436765914,
                "lng": 7.804591395792681
            },
            "full_address": "Bahnhofstraße 26",
            "city": "Bundenthal"
        },
        {
            "id": "station_93",
            "name": "Rettungswache Saarburg",
            "location": {
                "lat": 49.60403389459532,
                "lng": 6.539503719699959
            },
            "full_address": "Graf-Siegfried-Straße 94",
            "city": "Saarburg"
        },
        {
            "id": "station_94",
            "name": "Rettungswache Morbach",
            "location": {
                "lat": 49.81131000299728,
                "lng": 7.129832856965034
            },
            "full_address": "Raiffeisenstraße 26 B",
            "city": "Morbach"
        },
        {
            "id": "station_95",
            "name": "Rettungswache Badem",
            "location": {
                "lat": 50.0132537,
                "lng": 6.611460799999999
            },
            "full_address": "Nordring 4",
            "city": "Badem"
        },
        {
            "id": "station_96",
            "name": "Rettungswache Thalfang",
            "location": {
                "lat": 49.75340715977582,
                "lng": 6.9957666026998755
            },
            "full_address": "Petersberger Weg 3",
            "city": "Thalfang"
        },
        {
            "id": "station_97",
            "name": "Rettungswache Hausen",
            "location": {
                "lat": 50.539802400000006,
                "lng": 7.4093918999999975
            },
            "full_address": "In der Au 2 A",
            "city": "Hausen (Wied)"
        },
        {
            "id": "station_98",
            "name": "Rettungswache Bitburg",
            "location": {
                "lat": 49.95593499514103,
                "lng": 6.511501355913775
            },
            "full_address": "Am Bittenbach 5",
            "city": "Bitburg"
        },
        {
            "id": "station_99",
            "name": "Rettungswache Konz",
            "location": {
                "lat": 49.70110236662544,
                "lng": 6.57692172308575
            },
            "full_address": "Granastraße 115",
            "city": "Konz"
        },
        {
            "id": "station_100",
            "name": "Rettungswache Herxheim",
            "location": {
                "lat": 49.14896845,
                "lng": 8.2148584
            },
            "full_address": "Niederhohlstraße 27",
            "city": "Herxheim bei Landau/Pfalz"
        },
        {
            "id": "station_101",
            "name": "Rettungswache Gerolstein",
            "location": {
                "lat": 50.225744130402276,
                "lng": 6.653666598848502
            },
            "full_address": "Lindenstraße 14",
            "city": "Gerolstein"
        },
        {
            "id": "station_102",
            "name": "Rettungswache Hauenstein",
            "location": {
                "lat": 49.19340718014761,
                "lng": 7.845421424434136
            },
            "full_address": "Bahnhofstraße 77",
            "city": "Hauenstein"
        },
        {
            "id": "station_103",
            "name": "Rettungswache Neuerburg",
            "location": {
                "lat": 50.00184326754619,
                "lng": 6.303733189209882
            },
            "full_address": "Bitburger Straße",
            "city": "Neuerburg"
        },
        {
            "id": "station_104",
            "name": "Rettungswache Zerf",
            "location": {
                "lat": 49.596375746284124,
                "lng": 6.683106449414134
            },
            "full_address": "Deeswiese 3",
            "city": "Niederzerf"
        },
        {
            "id": "station_105",
            "name": "Flughafenfeuerwehr Hahn Airport",
            "location": {
                "lat": 49.94536306335162,
                "lng": 7.267498365795242
            },
            "full_address": "510",
            "city": "Lautzenhausen"
        },
        {
            "id": "station_106",
            "name": "Rettungswache Büchenbeuren",
            "location": {
                "lat": 49.928441327556165,
                "lng": 7.283165595588624
            },
            "full_address": "Im Schiffels 19",
            "city": "Büchenbeuren"
        },
        {
            "id": "station_107",
            "name": "Rettungswache Rennerod",
            "location": {
                "lat": 50.60973621779275,
                "lng": 8.064456403960016
            },
            "full_address": "Am Markt 8",
            "city": "Rennerod"
        },
        {
            "id": "station_108",
            "name": "Rettungswache Bad Ems",
            "location": {
                "lat": 50.33565095000001,
                "lng": 7.705711800000002
            },
            "full_address": "Auf der Pütz 6",
            "city": "Bad Ems"
        },
        {
            "id": "station_109",
            "name": "Rettungswache Nieder-Olm",
            "location": {
                "lat": 49.908645801867365,
                "lng": 8.197174825349165
            },
            "full_address": "Georg-Taulke-Allee 3",
            "city": "Nieder-Olm"
        },
        {
            "id": "station_110",
            "name": "Rettungswache St. Goarshauen",
            "location": {
                "lat": 50.15940246123619,
                "lng": 7.721815463332567
            },
            "full_address": "Nastätter Straße 63",
            "city": "Sankt Goarshausen"
        },
        {
            "id": "station_111",
            "name": "Rettungswache Grünstadt",
            "location": {
                "lat": 49.56449914659653,
                "lng": 8.158724002878557
            },
            "full_address": "Am Bergel",
            "city": "Grünstadt"
        },
        {
            "id": "station_112",
            "name": "DRK Rockenhausen",
            "location": {
                "lat": 49.630783,
                "lng": 7.808703552083329
            },
            "full_address": "Am Pfingstborn 1",
            "city": "Rockenhausen"
        },
        {
            "id": "station_113",
            "name": "DRK-Rettungswache Kirn",
            "location": {
                "lat": 49.79407452276786,
                "lng": 7.455004418867766
            },
            "full_address": "Jahnstraße 11A",
            "city": "Kirn"
        },
        {
            "id": "station_114",
            "name": "Rettungswache Pluwig",
            "location": {
                "lat": 49.69237957772513,
                "lng": 6.712924656506659
            },
            "full_address": "Kreuzgarten 1",
            "city": "Pluwig"
        },
        {
            "id": "station_115",
            "name": "Rettungswache Nastätten",
            "location": {
                "lat": 50.20247138904593,
                "lng": 7.856858275909113
            },
            "full_address": "Hochstraße 14 C",
            "city": "Nastätten"
        },
        {
            "id": "station_116",
            "name": "DRK Rettungswache Remagen",
            "location": {
                "lat": 50.57334061338261,
                "lng": 7.234710811095994
            },
            "full_address": "Sinziger Straße 11",
            "city": "Remagen"
        },
        {
            "id": "station_117",
            "name": "Rettungswache Mayen",
            "location": {
                "lat": 50.325328137245165,
                "lng": 7.217254679878719
            },
            "full_address": "An der Saalburg",
            "city": "Mayen"
        },
        {
            "id": "station_118",
            "name": "Rettungswache Nierstein",
            "location": {
                "lat": 49.86306962557751,
                "lng": 8.354124922291444
            },
            "full_address": "Rheinallee 66",
            "city": "Nierstein"
        },
        {
            "id": "station_119",
            "name": "DRK-Rettungswache Bad Dürkheim",
            "location": {
                "lat": 49.46833197771565,
                "lng": 8.178015364492259
            },
            "full_address": "Sägmühle 1",
            "city": "Bad Dürkheim"
        },
        {
            "id": "station_120",
            "name": "Rettungswache Rodalben",
            "location": {
                "lat": 49.24196046670403,
                "lng": 7.633097660818206
            },
            "full_address": "Kirchbergstraße 18",
            "city": "Rodalben"
        },
        {
            "id": "station_121",
            "name": "Rettungswache Bingen",
            "location": {
                "lat": 49.96321774980842,
                "lng": 7.892718894247267
            },
            "full_address": "Stefan-George-Straße 18",
            "city": "Bingen am Rhein"
        },
        {
            "id": "station_122",
            "name": "Rettungswache Welschbillig",
            "location": {
                "lat": 49.8533542866619,
                "lng": 6.567462727014552
            },
            "full_address": "Zum Jugendheim 2",
            "city": "Welschbillig"
        },
        {
            "id": "station_123",
            "name": "Rettungswache Andernach",
            "location": {
                "lat": 50.43994300715351,
                "lng": 7.403563896178335
            },
            "full_address": "Bürresheimer Gasse 10",
            "city": "Andernach"
        },
        {
            "id": "station_124",
            "name": "Rettungswache Weselberg",
            "location": {
                "lat": 49.33204086079989,
                "lng": 7.597671609518134
            },
            "full_address": "Rudolf-Diesel-Straße 16",
            "city": "Harsberg"
        },
        {
            "id": "station_125",
            "name": "Rettungswache Boppard",
            "location": {
                "lat": 50.23051984077097,
                "lng": 7.590274764060202
            },
            "full_address": "Säuerlingstraße 4",
            "city": "Boppard"
        },
        {
            "id": "station_126",
            "name": "Rettungswache Echternacherbrück",
            "location": {
                "lat": 49.813322400000004,
                "lng": 6.427707300000001
            },
            "full_address": "Bitburger Straße 28",
            "city": "Echternacherbrück"
        },
        {
            "id": "station_127",
            "name": "Rettungswache Schweich",
            "location": {
                "lat": 49.81741170513588,
                "lng": 6.7509357170806465
            },
            "full_address": "Zum Schwimmbad 3",
            "city": "Schweich"
        },
        {
            "id": "station_128",
            "name": "Rettungswache Zell (Mosel)",
            "location": {
                "lat": 50.02419389211179,
                "lng": 7.1658131847042235
            },
            "full_address": "Keltenring 9",
            "city": "Zell (Mosel)"
        },
        {
            "id": "station_129",
            "name": "Rettungswache Kaisersesch",
            "location": {
                "lat": 50.2338150214143,
                "lng": 7.142467775488778
            },
            "full_address": "Pankratiusstraße 8",
            "city": "Kaisersesch"
        },
        {
            "id": "station_130",
            "name": "Rettungswache Lutzerath",
            "location": {
                "lat": 50.13118514596347,
                "lng": 7.01013652512331
            },
            "full_address": "Am Festplatz 2",
            "city": "Lutzerath"
        },
        {
            "id": "station_131",
            "name": "Rettungswache Simmern",
            "location": {
                "lat": 49.980252490686546,
                "lng": 7.518584588173545
            },
            "full_address": "Holzbacher Straße 5",
            "city": "Simmern/Hunsrück"
        },
        {
            "id": "station_132",
            "name": "Rettungswache Sarmsheim",
            "location": {
                "lat": 49.94246724999999,
                "lng": 7.889714700000001
            },
            "full_address": "Talstraße 36",
            "city": "Münster-Sarmsheim"
        },
        {
            "id": "station_133",
            "name": "Rettungswache Schifferstadt",
            "location": {
                "lat": 49.39292529463728,
                "lng": 8.387282372792999
            },
            "full_address": "An der Rettungswache 2",
            "city": "Schifferstadt"
        },
        {
            "id": "station_134",
            "name": "Rettungswache Bernkastel-Kues",
            "location": {
                "lat": 49.90700802290599,
                "lng": 7.031843669668375
            },
            "full_address": "Junkerland 4",
            "city": "Bernkastel-Kues"
        },
        {
            "id": "station_135",
            "name": "Rettungswache Lauterecken",
            "location": {
                "lat": 49.65078144826286,
                "lng": 7.58476431045183
            },
            "full_address": "Saarbrücker Straße 54 A",
            "city": "Lauterecken"
        },
        {
            "id": "station_136",
            "name": "Rettungswache Oberwesel",
            "location": {
                "lat": 50.110125754739244,
                "lng": 7.7227394035768535
            },
            "full_address": "Koblenzer Straße 28",
            "city": "Oberwesel"
        },
        {
            "id": "station_137",
            "name": "Rettungswache Kelberg",
            "location": {
                "lat": 50.2826654040791,
                "lng": 6.918207894458086
            },
            "full_address": "Am Schwimmbad 2",
            "city": "Köttelbach"
        },
        {
            "id": "station_138",
            "name": "Rettungswache Löf",
            "location": {
                "lat": 50.232988010602504,
                "lng": 7.437621189931085
            },
            "full_address": "In der Mark 9",
            "city": "Löf"
        },
        {
            "id": "station_139",
            "name": "Rettungswache Manderscheid",
            "location": {
                "lat": 50.09354064383699,
                "lng": 6.8080129532109215
            },
            "full_address": "Friedrichstraße 8",
            "city": "Manderscheid"
        },
        {
            "id": "station_140",
            "name": "Rettungswache Cochem",
            "location": {
                "lat": 50.15516246355028,
                "lng": 7.179740095928163
            },
            "full_address": "Im Guguck",
            "city": "Cochem"
        },
        {
            "id": "station_141",
            "name": "Rettungswache Meisenheim",
            "location": {
                "lat": 49.704880519927386,
                "lng": 7.665167090179571
            },
            "full_address": "Obertor 27",
            "city": "Meisenheim"
        },
        {
            "id": "station_142",
            "name": "Rettungswache Adenau",
            "location": {
                "lat": 50.3845845877918,
                "lng": 6.92505231550048
            },
            "full_address": "Hauptstraße 1 A",
            "city": "Adenau"
        },
        {
            "id": "station_143",
            "name": "Rettungswache Westerburg",
            "location": {
                "lat": 50.55870049201952,
                "lng": 7.97158949146803
            },
            "full_address": "Rudolf-Dietz-Straße 1 A",
            "city": "Westerburg"
        },
        {
            "id": "station_144",
            "name": "Rettungswache Bad Neuenahr-Ahrweiler",
            "location": {
                "lat": 50.54054899474834,
                "lng": 7.1267512365245995
            },
            "full_address": "Dahlienweg",
            "city": "Bad Neuenahr-Ahrweiler"
        },
        {
            "id": "station_145",
            "name": "Rettungswache Montabaur",
            "location": {
                "lat": 50.43722585121756,
                "lng": 7.831608859233673
            },
            "full_address": "Eichwiese 5",
            "city": "Montabaur"
        },
        {
            "id": "station_146",
            "name": "Rettungswache Kusel",
            "location": {
                "lat": 49.54540589333247,
                "lng": 7.379484910485332
            },
            "full_address": "Trierer Straße 179",
            "city": "Kusel"
        },
        {
            "id": "station_147",
            "name": "Rettungswache Zweibrücken",
            "location": {
                "lat": 49.24060783807158,
                "lng": 7.367732690989266
            },
            "full_address": "Kasernenstraße 7",
            "city": "Zweibrücken"
        },
        {
            "id": "station_148",
            "name": "Rettungswache Edenkoben",
            "location": {
                "lat": 49.285160548857206,
                "lng": 8.13621564629963
            },
            "full_address": "Luitpoldstraße 63",
            "city": "Edenkoben"
        },
        {
            "id": "station_149",
            "name": "DRK Westpfalzklinikum Kaiserslautern",
            "location": {
                "lat": 49.44282320695295,
                "lng": 7.758896144874136
            },
            "full_address": "Hellmut-Hartert Str",
            "city": "Kaiserslautern"
        },
        {
            "id": "station_150",
            "name": "Rettungswache Bad Marienberg",
            "location": {
                "lat": 50.65403944999999,
                "lng": 7.945799999999998
            },
            "full_address": "Ewiger Weg",
            "city": "Bad Marienberg (Westerwald)"
        },
        {
            "id": "station_151",
            "name": "Rettungswache Dierdorf",
            "location": {
                "lat": 50.547693121819805,
                "lng": 7.662383354152936
            },
            "full_address": "Johanniterstraße 21",
            "city": "Dierdorf"
        },
        {
            "id": "station_152",
            "name": "Notarztstandort Singhofen",
            "location": {
                "lat": 50.2765525489916,
                "lng": 7.836270530933015
            },
            "full_address": "Hauptstraße",
            "city": "Singhofen"
        },
        {
            "id": "station_153",
            "name": "Rettungswache Wörrstadt",
            "location": {
                "lat": 49.84637664267689,
                "lng": 8.119850319085145
            },
            "full_address": "Zum Römergrund 3",
            "city": "Wörrstadt"
        },
        {
            "id": "station_154",
            "name": "DRK Rettungswache Kirchen",
            "location": {
                "lat": 50.80671168494407,
                "lng": 7.877777360557511
            },
            "full_address": "Bahnhofstraße 14 B",
            "city": "Kirchen (Sieg)"
        },
        {
            "id": "station_155",
            "name": "Rettungswache Wissen",
            "location": {
                "lat": 50.78245621572691,
                "lng": 7.732188511113566
            },
            "full_address": "Auf der Rahm 21",
            "city": "Wissen"
        },
        {
            "id": "station_156",
            "name": "Rettungswache Horhausen",
            "location": {
                "lat": 50.58631900954372,
                "lng": 7.534230534868153
            },
            "full_address": "Bischof-Rüth-Straße 22",
            "city": "Huf"
        },
        {
            "id": "station_157",
            "name": "Notarztstandort Meisenheim",
            "location": {
                "lat": 49.707162117374345,
                "lng": 7.676751326768179
            },
            "full_address": "Werner-Martin-Weg",
            "city": "Meisenheim"
        },
        {
            "id": "station_158",
            "name": "Rettungswache Rechte Rheinseite",
            "location": {
                "lat": 50.34184000919266,
                "lng": 7.6051034578528025
            },
            "full_address": "Balthasar-Neumann-Straße 10",
            "city": "Koblenz"
        },
        {
            "id": "station_159",
            "name": "Rettungswache Unkel",
            "location": {
                "lat": 50.59596150720015,
                "lng": 7.216631558371865
            },
            "full_address": "Graf-Blumenthal-Straße 4a",
            "city": "Unkel"
        },
        {
            "id": "station_160",
            "name": "Rettungswache Kirchheimbolanden",
            "location": {
                "lat": 49.6576842976243,
                "lng": 8.0049046036027
            },
            "full_address": "Dannenfelser Straße",
            "city": "Kirchheimbolanden"
        },
        {
            "id": "station_161",
            "name": "Rettungswache Gensingen",
            "location": {
                "lat": 49.8937661460737,
                "lng": 7.918910110232352
            },
            "full_address": "Nahestraße 4",
            "city": "Gensingen"
        },
        {
            "id": "station_162",
            "name": "Rettungswache Kandel",
            "location": {
                "lat": 49.08797925254384,
                "lng": 8.192914092085632
            },
            "full_address": "Landauer Straße 30a",
            "city": "Kandel"
        },
        {
            "id": "station_164",
            "name": "Rettungswache Rhaunen",
            "location": {
                "lat": 49.86603384255001,
                "lng": 7.324215709938926
            },
            "full_address": "Königsteinstraße 34",
            "city": "Rhaunen"
        },
        {
            "id": "station_165",
            "name": "Rettungswache Gelsdorf",
            "location": {
                "lat": 50.580739300000005,
                "lng": 7.032268399999998
            },
            "full_address": "Altenahrer Straße",
            "city": "Grafschaft"
        },
        {
            "id": "station_166",
            "name": "Rettungswache ASB Worms",
            "location": {
                "lat": 49.63746245899785,
                "lng": 8.308470431338728
            },
            "full_address": "Eichendorffstraße",
            "city": "Worms"
        },
        {
            "id": "station_167",
            "name": "Rettungswache Bundeswehr Koblenz",
            "location": {
                "lat": 50.368544470248644,
                "lng": 7.545139768158545
            },
            "full_address": "Rübenacher Straße 170",
            "city": "Koblenz"
        },
        {
            "id": "station_168",
            "name": "Deutsches Rotes Kreuz",
            "location": {
                "lat": 50.59689048680992,
                "lng": 7.614259462490417
            },
            "full_address": "Zum Sportplatz 1",
            "city": "Niederdreis"
        },
        {
            "id": "station_171",
            "name": "DRK Rettungswache Nassau",
            "location": {
                "lat": 50.309805643916356,
                "lng": 7.797936140988568
            },
            "full_address": "Auf der Au 4a",
            "city": "Nassau"
        },
        {
            "id": "station_172",
            "name": "DRK-Rettungswache Baumholder",
            "location": {
                "lat": 49.615715340354846,
                "lng": 7.331788612685341
            },
            "full_address": "Aulenbacher Straße 6",
            "city": "Baumholder"
        },
        {
            "id": "station_173",
            "name": "DRK Rettungswache Kandel",
            "location": {
                "lat": 49.08801142371009,
                "lng": 8.192893353550089
            },
            "full_address": "Landauer Straße 30a",
            "city": "Kandel"
        },
        {
            "id": "station_174",
            "name": "Rettungswac he Herxheim",
            "location": {
                "lat": 49.136564462180274,
                "lng": 8.220637303940372
            },
            "full_address": "St.-Christophorus-Straße 18",
            "city": "Herxheim bei Landau/Pfalz"
        },
        {
            "id": "station_175",
            "name": "Deutsches Rotes Kreuz",
            "location": {
                "lat": 50.0436154,
                "lng": 7.302210249999999
            },
            "full_address": "Waldstraße",
            "city": "Blankenrath"
        },
        {
            "id": "station_176",
            "name": "Rettungswache 7 - Kempenich",
            "location": {
                "lat": 50.43305246258832,
                "lng": 7.116438077988205
            },
            "full_address": "Wolffstraße 11",
            "city": "Spessart"
        },
        {
            "id": "station_177",
            "name": "DRK/MHD Schwedelbach",
            "location": {
                "lat": 49.4921388,
                "lng": 7.58724185
            },
            "full_address": "Am Kiefernkopf 19",
            "city": "Schwedelbach"
        }
    ],
    "ambulances": [
        {
            "id": 1,
            "location": {
                "lat": 49.4042184,
                "lng": 7.5602942
            },
            "status": "idle"
        },
        {
            "id": 2,
            "location": {
                "lat": 50.4374574,
                "lng": 7.402254
            },
            "status": "idle"
        },
        {
            "id": 3,
            "location": {
                "lat": 49.6304177,
                "lng": 7.8143081
            },
            "status": "idle"
        },
        {
            "id": 4,
            "location": {
                "lat": 50.4285578,
                "lng": 7.3964527
            },
            "status": "idle"
        },
        {
            "id": 5,
            "location": {
                "lat": 50.0153919,
                "lng": 8.239119
            },
            "status": "idle"
        },
        {
            "id": 6,
            "location": {
                "lat": 49.0861819,
                "lng": 8.2008986
            },
            "status": "idle"
        },
        {
            "id": 7,
            "location": {
                "lat": 50.3481962,
                "lng": 7.5933444
            },
            "status": "idle"
        },
        {
            "id": 8,
            "location": {
                "lat": 49.3109941,
                "lng": 8.4346812
            },
            "status": "idle"
        },
        {
            "id": 9,
            "location": {
                "lat": 50.3778925,
                "lng": 7.4195807
            },
            "status": "idle"
        },
        {
            "id": 10,
            "location": {
                "lat": 49.2463611,
                "lng": 7.3630101
            },
            "status": "idle"
        },
        {
            "id": 11,
            "location": {
                "lat": 49.3461013,
                "lng": 8.1502651
            },
            "status": "idle"
        },
        {
            "id": 12,
            "location": {
                "lat": 49.205821,
                "lng": 8.1040769
            },
            "status": "idle"
        },
        {
            "id": 13,
            "location": {
                "lat": 49.7945675,
                "lng": 7.455733
            },
            "status": "idle"
        },
        {
            "id": 14,
            "location": {
                "lat": 49.4414066,
                "lng": 7.7563994
            },
            "status": "idle"
        },
        {
            "id": 15,
            "location": {
                "lat": 50.0001647,
                "lng": 6.8921278
            },
            "status": "idle"
        },
        {
            "id": 16,
            "location": {
                "lat": 49.5427524,
                "lng": 8.3311728
            },
            "status": "idle"
        },
        {
            "id": 17,
            "location": {
                "lat": 50.4529747,
                "lng": 7.7856144
            },
            "status": "idle"
        },
        {
            "id": 18,
            "location": {
                "lat": 50.539677,
                "lng": 7.0914368
            },
            "status": "idle"
        },
        {
            "id": 19,
            "location": {
                "lat": 50.8061404,
                "lng": 7.8792284
            },
            "status": "outOfService"
        },
        {
            "id": 20,
            "location": {
                "lat": 50.4403691,
                "lng": 7.4047616
            },
            "status": "idle"
        },
        {
            "id": 21,
            "location": {
                "lat": 50.3998574,
                "lng": 7.6116395
            },
            "status": "idle"
        },
        {
            "id": 22,
            "location": {
                "lat": 50.5480774,
                "lng": 7.6617135
            },
            "status": "idle"
        },
        {
            "id": 23,
            "location": {
                "lat": 50.5739473,
                "lng": 7.2329643
            },
            "status": "idle"
        },
        {
            "id": 24,
            "location": {
                "lat": 49.6493428,
                "lng": 8.3197991
            },
            "status": "idle"
        },
        {
            "id": 25,
            "location": {
                "lat": 49.1930324,
                "lng": 7.6176774
            },
            "status": "idle"
        },
        {
            "id": 26,
            "location": {
                "lat": 50.6679294,
                "lng": 7.4240214
            },
            "status": "idle"
        },
        {
            "id": 27,
            "location": {
                "lat": 50.6564733,
                "lng": 7.8303447
            },
            "status": "idle"
        },
        {
            "id": 28,
            "location": {
                "lat": 49.3990394,
                "lng": 7.5824246
            },
            "status": "idle"
        },
        {
            "id": 29,
            "location": {
                "lat": 49.6588375,
                "lng": 8.0076943
            },
            "status": "idle"
        },
        {
            "id": 30,
            "location": {
                "lat": 49.6307343,
                "lng": 7.8144719
            },
            "status": "idle"
        },
        {
            "id": 31,
            "location": {
                "lat": 49.8403356,
                "lng": 7.8556199
            },
            "status": "idle"
        },
        {
            "id": 32,
            "location": {
                "lat": 50.3536069,
                "lng": 7.5868732
            },
            "status": "outOfService"
        },
        {
            "id": 33,
            "location": {
                "lat": 50.0236154,
                "lng": 7.1679618
            },
            "status": "idle"
        },
        {
            "id": 34,
            "location": {
                "lat": 49.7065332,
                "lng": 7.6768326
            },
            "status": "idle"
        },
        {
            "id": 35,
            "location": {
                "lat": 49.2200087,
                "lng": 8.365767
            },
            "status": "idle"
        },
        {
            "id": 36,
            "location": {
                "lat": 49.4665575,
                "lng": 8.1791839
            },
            "status": "idle"
        },
        {
            "id": 37,
            "location": {
                "lat": 49.242326,
                "lng": 8.0602199
            },
            "status": "idle"
        },
        {
            "id": 38,
            "location": {
                "lat": 49.9717121,
                "lng": 6.5263986
            },
            "status": "idle"
        },
        {
            "id": 39,
            "location": {
                "lat": 49.6028926,
                "lng": 6.5382056
            },
            "status": "idle"
        },
        {
            "id": 40,
            "location": {
                "lat": 49.6575672,
                "lng": 6.9474417
            },
            "status": "idle"
        },
        {
            "id": 41,
            "location": {
                "lat": 50.2686196,
                "lng": 7.9812932
            },
            "status": "idle"
        },
        {
            "id": 42,
            "location": {
                "lat": 49.106257,
                "lng": 8.0000136
            },
            "status": "idle"
        },
        {
            "id": 43,
            "location": {
                "lat": 50.1555986,
                "lng": 7.1794418
            },
            "status": "idle"
        },
        {
            "id": 44,
            "location": {
                "lat": 50.5435323,
                "lng": 7.1382406
            },
            "status": "idle"
        },
        {
            "id": 45,
            "location": {
                "lat": 50.3252384,
                "lng": 7.2182312
            },
            "status": "idle"
        },
        {
            "id": 46,
            "location": {
                "lat": 49.9923335,
                "lng": 8.2595793
            },
            "status": "idle"
        },
        {
            "id": 47,
            "location": {
                "lat": 49.810787,
                "lng": 7.8457355
            },
            "status": "idle"
        },
        {
            "id": 48,
            "location": {
                "lat": 49.495644,
                "lng": 8.4283467
            },
            "status": "idle"
        },
        {
            "id": 49,
            "location": {
                "lat": 49.495644,
                "lng": 8.4283467
            },
            "status": "idle"
        },
        {
            "id": 50,
            "location": {
                "lat": 49.495644,
                "lng": 8.4283467
            },
            "status": "idle"
        },
        {
            "id": 51,
            "location": {
                "lat": 49.495644,
                "lng": 8.4283467
            },
            "status": "idle"
        },
        {
            "id": 52,
            "location": {
                "lat": 50.354799,
                "lng": 7.5868482
            },
            "status": "idle"
        },
        {
            "id": 53,
            "location": {
                "lat": 50.354799,
                "lng": 7.5868482
            },
            "status": "idle"
        },
        {
            "id": 54,
            "location": {
                "lat": 49.43987544371878,
                "lng": 7.777862383473409
            },
            "status": "idle"
        },
        {
            "id": 55,
            "location": {
                "lat": 49.43987544371878,
                "lng": 7.777862383473409
            },
            "status": "idle"
        },
        {
            "id": 56,
            "location": {
                "lat": 49.43987544371878,
                "lng": 7.777862383473409
            },
            "status": "idle"
        },
        {
            "id": 57,
            "location": {
                "lat": 49.7628935,
                "lng": 6.6412751
            },
            "status": "idle"
        },
        {
            "id": 58,
            "location": {
                "lat": 49.7628935,
                "lng": 6.6412751
            },
            "status": "idle"
        },
        {
            "id": 59,
            "location": {
                "lat": 49.7628935,
                "lng": 6.6412751
            },
            "status": "idle"
        },
        {
            "id": 60,
            "location": {
                "lat": 49.7628935,
                "lng": 6.6412751
            },
            "status": "idle"
        },
        {
            "id": 61,
            "location": {
                "lat": 49.9162818,
                "lng": 7.0626654
            },
            "status": "idle"
        },
        {
            "id": 62,
            "location": {
                "lat": 50.3817305,
                "lng": 7.5984954
            },
            "status": "idle"
        },
        {
            "id": 63,
            "location": {
                "lat": 49.9378308,
                "lng": 6.6415415
            },
            "status": "outOfService"
        },
        {
            "id": 64,
            "location": {
                "lat": 49.8434734,
                "lng": 7.8725329
            },
            "status": "idle"
        },
        {
            "id": 65,
            "location": {
                "lat": 49.8434734,
                "lng": 7.8725329
            },
            "status": "idle"
        },
        {
            "id": 66,
            "location": {
                "lat": 49.8434734,
                "lng": 7.8725329
            },
            "status": "idle"
        },
        {
            "id": 67,
            "location": {
                "lat": 49.8434734,
                "lng": 7.8725329
            },
            "status": "idle"
        },
        {
            "id": 68,
            "location": {
                "lat": 49.2119523,
                "lng": 8.3640984
            },
            "status": "idle"
        },
        {
            "id": 69,
            "location": {
                "lat": 49.2119523,
                "lng": 8.3640984
            },
            "status": "idle"
        },
        {
            "id": 70,
            "location": {
                "lat": 49.2119523,
                "lng": 8.3640984
            },
            "status": "idle"
        },
        {
            "id": 71,
            "location": {
                "lat": 49.2119523,
                "lng": 8.3640984
            },
            "status": "outOfService"
        },
        {
            "id": 72,
            "location": {
                "lat": 49.4153299,
                "lng": 7.578469323841577
            },
            "status": "idle"
        },
        {
            "id": 73,
            "location": {
                "lat": 49.4153299,
                "lng": 7.578469323841577
            },
            "status": "idle"
        },
        {
            "id": 74,
            "location": {
                "lat": 49.4153299,
                "lng": 7.578469323841577
            },
            "status": "idle"
        },
        {
            "id": 75,
            "location": {
                "lat": 50.4182315,
                "lng": 7.4514871
            },
            "status": "idle"
        },
        {
            "id": 76,
            "location": {
                "lat": 50.4182315,
                "lng": 7.4514871
            },
            "status": "idle"
        },
        {
            "id": 77,
            "location": {
                "lat": 50.0830689,
                "lng": 7.210899
            },
            "status": "idle"
        },
        {
            "id": 78,
            "location": {
                "lat": 50.0830689,
                "lng": 7.210899
            },
            "status": "idle"
        },
        {
            "id": 79,
            "location": {
                "lat": 49.7553415,
                "lng": 8.1155718
            },
            "status": "idle"
        },
        {
            "id": 80,
            "location": {
                "lat": 49.6995026,
                "lng": 7.3358237
            },
            "status": "idle"
        },
        {
            "id": 81,
            "location": {
                "lat": 49.6995026,
                "lng": 7.3358237
            },
            "status": "outOfService"
        },
        {
            "id": 82,
            "location": {
                "lat": 49.6369855,
                "lng": 8.3658428
            },
            "status": "idle"
        },
        {
            "id": 83,
            "location": {
                "lat": 49.6369855,
                "lng": 8.3658428
            },
            "status": "outOfService"
        },
        {
            "id": 84,
            "location": {
                "lat": 49.1634502,
                "lng": 8.2949436
            },
            "status": "idle"
        },
        {
            "id": 85,
            "location": {
                "lat": 49.1634502,
                "lng": 8.2949436
            },
            "status": "idle"
        },
        {
            "id": 86,
            "location": {
                "lat": 49.6460118,
                "lng": 7.1616992
            },
            "status": "idle"
        },
        {
            "id": 87,
            "location": {
                "lat": 49.6460118,
                "lng": 7.1616992
            },
            "status": "idle"
        },
        {
            "id": 88,
            "location": {
                "lat": 49.6460118,
                "lng": 7.1616992
            },
            "status": "idle"
        },
        {
            "id": 89,
            "location": {
                "lat": 49.6460118,
                "lng": 7.1616992
            },
            "status": "idle"
        },
        {
            "id": 90,
            "location": {
                "lat": 50.0725494,
                "lng": 7.4401689
            },
            "status": "idle"
        },
        {
            "id": 91,
            "location": {
                "lat": 49.837063,
                "lng": 7.8686088
            },
            "status": "idle"
        },
        {
            "id": 92,
            "location": {
                "lat": 50.4516012,
                "lng": 7.222238
            },
            "status": "idle"
        },
        {
            "id": 93,
            "location": {
                "lat": 50.4516012,
                "lng": 7.222238
            },
            "status": "idle"
        },
        {
            "id": 94,
            "location": {
                "lat": 50.4516012,
                "lng": 7.222238
            },
            "status": "outOfService"
        },
        {
            "id": 95,
            "location": {
                "lat": 50.4516012,
                "lng": 7.222238
            },
            "status": "idle"
        },
        {
            "id": 96,
            "location": {
                "lat": 49.48860245,
                "lng": 7.724857606561068
            },
            "status": "idle"
        },
        {
            "id": 97,
            "location": {
                "lat": 49.48860245,
                "lng": 7.724857606561068
            },
            "status": "idle"
        },
        {
            "id": 98,
            "location": {
                "lat": 49.48860245,
                "lng": 7.724857606561068
            },
            "status": "idle"
        },
        {
            "id": 99,
            "location": {
                "lat": 49.4454841,
                "lng": 7.749821190659336
            },
            "status": "idle"
        },
        {
            "id": 100,
            "location": {
                "lat": 49.4454841,
                "lng": 7.749821190659336
            },
            "status": "idle"
        },
        {
            "id": 101,
            "location": {
                "lat": 49.4454841,
                "lng": 7.749821190659336
            },
            "status": "idle"
        },
        {
            "id": 102,
            "location": {
                "lat": 49.44963315,
                "lng": 7.779051943395011
            },
            "status": "idle"
        },
        {
            "id": 103,
            "location": {
                "lat": 49.4088965,
                "lng": 7.3780315
            },
            "status": "idle"
        },
        {
            "id": 104,
            "location": {
                "lat": 49.1992416,
                "lng": 7.5940284
            },
            "status": "idle"
        },
        {
            "id": 105,
            "location": {
                "lat": 49.1992416,
                "lng": 7.5940284
            },
            "status": "idle"
        },
        {
            "id": 106,
            "location": {
                "lat": 49.2026302,
                "lng": 8.1162223
            },
            "status": "idle"
        },
        {
            "id": 107,
            "location": {
                "lat": 49.2026302,
                "lng": 8.1162223
            },
            "status": "idle"
        },
        {
            "id": 108,
            "location": {
                "lat": 49.2026302,
                "lng": 8.1162223
            },
            "status": "idle"
        },
        {
            "id": 109,
            "location": {
                "lat": 49.2026302,
                "lng": 8.1162223
            },
            "status": "idle"
        },
        {
            "id": 110,
            "location": {
                "lat": 49.1522636,
                "lng": 7.7810374
            },
            "status": "idle"
        },
        {
            "id": 111,
            "location": {
                "lat": 49.3123683,
                "lng": 8.4417795
            },
            "status": "idle"
        },
        {
            "id": 112,
            "location": {
                "lat": 49.3123683,
                "lng": 8.4417795
            },
            "status": "idle"
        },
        {
            "id": 113,
            "location": {
                "lat": 49.4351598,
                "lng": 8.3613279
            },
            "status": "idle"
        },
        {
            "id": 114,
            "location": {
                "lat": 49.4351598,
                "lng": 8.3613279
            },
            "status": "idle"
        },
        {
            "id": 115,
            "location": {
                "lat": 49.4601523,
                "lng": 8.4180486
            },
            "status": "idle"
        },
        {
            "id": 116,
            "location": {
                "lat": 49.4601523,
                "lng": 8.4180486
            },
            "status": "idle"
        },
        {
            "id": 117,
            "location": {
                "lat": 49.4601523,
                "lng": 8.4180486
            },
            "status": "idle"
        },
        {
            "id": 118,
            "location": {
                "lat": 49.4601523,
                "lng": 8.4180486
            },
            "status": "idle"
        },
        {
            "id": 119,
            "location": {
                "lat": 50.5640421,
                "lng": 7.3195034
            },
            "status": "idle"
        },
        {
            "id": 120,
            "location": {
                "lat": 50.5640421,
                "lng": 7.3195034
            },
            "status": "idle"
        },
        {
            "id": 121,
            "location": {
                "lat": 50.5640421,
                "lng": 7.3195034
            },
            "status": "idle"
        },
        {
            "id": 122,
            "location": {
                "lat": 50.5640421,
                "lng": 7.3195034
            },
            "status": "outOfService"
        },
        {
            "id": 123,
            "location": {
                "lat": 49.9743275,
                "lng": 8.2357905
            },
            "status": "idle"
        },
        {
            "id": 124,
            "location": {
                "lat": 49.9743275,
                "lng": 8.2357905
            },
            "status": "idle"
        },
        {
            "id": 125,
            "location": {
                "lat": 49.9743275,
                "lng": 8.2357905
            },
            "status": "idle"
        },
        {
            "id": 126,
            "location": {
                "lat": 49.9743275,
                "lng": 8.2357905
            },
            "status": "idle"
        },
        {
            "id": 127,
            "location": {
                "lat": 50.6890308,
                "lng": 7.6251662
            },
            "status": "idle"
        },
        {
            "id": 128,
            "location": {
                "lat": 50.6890308,
                "lng": 7.6251662
            },
            "status": "idle"
        },
        {
            "id": 129,
            "location": {
                "lat": 50.6890308,
                "lng": 7.6251662
            },
            "status": "idle"
        },
        {
            "id": 130,
            "location": {
                "lat": 50.2323446,
                "lng": 7.5870225
            },
            "status": "idle"
        },
        {
            "id": 131,
            "location": {
                "lat": 50.2323446,
                "lng": 7.5870225
            },
            "status": "idle"
        },
        {
            "id": 132,
            "location": {
                "lat": 49.1927565,
                "lng": 7.6156095
            },
            "status": "outOfService"
        },
        {
            "id": 133,
            "location": {
                "lat": 49.491644,
                "lng": 8.3981104
            },
            "status": "idle"
        },
        {
            "id": 134,
            "location": {
                "lat": 49.491644,
                "lng": 8.3981104
            },
            "status": "idle"
        },
        {
            "id": 135,
            "location": {
                "lat": 49.491644,
                "lng": 8.3981104
            },
            "status": "idle"
        },
        {
            "id": 136,
            "location": {
                "lat": 49.491644,
                "lng": 8.3981104
            },
            "status": "outOfService"
        },