{
    "mapArea": {
        "upperLeft": {
            "lat": 49.65,
            "lng": 7.5
        },
        "lowerRight": {
            "lat": 49.3,
            "lng": 8.1
        }
    },
    "hospitals": [
        {
            "id": 1,
            "name": "Westpfalz-Klinikum Kaiserslautern",
            "location": {
                "lat": 49.4408,
                "lng": 7.7772
            },
            "capacity": 30
        },
        {
            "id": 2,
            "name": "St. Franziskus Krankenhaus",
            "location": {
                "lat": 49.4506,
                "lng": 7.7674
            },
            "capacity": 20
        },
        {
            "id": 3,
            "name": "Lutrina-Klinik",
            "location": {
                "lat": 49.441868805424384,
                "lng": 7.772310787193479
            },
            "capacity": 50
        },
        {
            "id": 4,
            "name": "Nardini Klinikum St. Johannis",
            "location": {
                "lat": 49.4618836555868,
                "lng": 7.791436345732875
            },
            "capacity": 40
        },
        {
            "id": 5,
            "name": "Landstuhl Regional Medical Center",
            "location": {
                "lat": 49.46188095636237,
                "lng": 7.795774785374945
            },
            "capacity": 60
        }
    ],
    "rescueStations": [
        {
            "id": "station_0",
            "name": "DRK Kaiserslautern",
            "location": {
                "lat": 49.43987544371878,
                "lng": 7.777862383473409
            },
            "full_address": "Augustastrasse 16-24",
            "city": "Kaiserslautern"
        },
        {
            "id": "station_1",
            "name": "DRK Kaiserslautern",
            "location": {
                "lat": 49.44282320695295,
                "lng": 7.758896144874136
            },
            "full_address": "Hellmut-Hartert Str",
            "city": "Kaiserslautern"
        },
        {
            "id": "station_2",
            "name": "DRK Westpfalzklinikum Kaiserslautern",
            "location": {
                "lat": 49.43987544371878,
                "lng": 7.777862383473409
            },
            "full_address": "Augustastrasse 16-24",
            "city": "Kaiserslautern"
        },
        {
            "id": "station_3",
            "name": "DRK Westpfalzklinikum Kaiserslautern",
            "location": {
                "lat": 49.44282320695295,
                "lng": 7.758896144874136
            },
            "full_address": "Hellmut-Hartert Str",
            "city": "Kaiserslautern"
        },
        {
            "id": "station_4",
            "name": "ASB Kaiserslautern",
            "location": {
                "lat": 49.4454841,
                "lng": 7.749821190659336
            },
            "full_address": "Berlinerstr. 30",
            "city": "Kaiserslautern"
        },
        {
            "id": "station_5",
            "name": "MHD Kaiserslautern",
            "location": {
                "lat": 49.44963315,
                "lng": 7.779051943395011
            },
            "full_address": "Mainzer Stra\u00dfe 25",
            "city": "Kaiserslautern"
        },
        {
            "id": "station_6",
            "name": "DRK Otterbach",
            "location": {
                "lat": 49.48860245,
                "lng": 7.724857606561068
            },
            "full_address": "Ziegelh\u00fctterstra\u00dfe 51",
            "city": "Otterbach"
        },
        {
            "id": "station_7",
            "name": "DRK Hochspeyer",
            "location": {
                "lat": 49.44525922497954,
                "lng": 7.9097842609069
            },
            "full_address": "Hauptstra\u00dfe 37-39",
            "city": "Hochspeyer"
        },
        {
            "id": "station_8",
            "name": "DRK Landstuhl",
            "location": {
                "lat": 49.4153299,
                "lng": 7.578469323841577
            },
            "full_address": "Am Feuerwehrturm 6",
            "city": "Landstuhl"
        },
        {
            "id": "station_9",
            "name": "DRK Eisenberg",
            "location": {
                "lat": 49.55859595,
                "lng": 8.087365750000004
            },
            "full_address": "Am Gielbrunnen 5",
            "city": "Eisenberg"
        },
        {
            "id": "station_10",
            "name": "DRK Rockenhausen",
            "location": {
                "lat": 49.630783,
                "lng": 7.808703552083329
            },
            "full_address": "Am Pfingstborn 1",
            "city": "Rockenhausen"
        },
        {
            "id": "station_11",
            "name": "DRK/MHD Schwedelbach",
            "location": {
                "lat": 49.4921388,
                "lng": 7.58724185
            },
            "full_address": "Am Kiefernkopf 19",
            "city": "Schwedelbach"
        }
    ],
    "ambulances": [
        {
            "id": 1,
            "location": {
                "lat": 49.43987544371878,
                "lng": 7.777862383473409
            },
            "status": "idle",
            "type": "RTW"
        },
        {
            "id": 2,
            "location": {
                "lat": 49.43987544371878,
                "lng": 7.777862383473409
            },
            "status": "idle",
            "type": "RTW"
        },
        {
            "id": 3,
            "location": {
                "lat": 49.43987544371878,
                "lng": 7.777862383473409
            },
            "status": "idle",
            "type": "RTW"
        },
        {
            "id": 4,
            "location": {
                "lat": 49.43987544371878,
                "lng": 7.777862383473409
            },
            "status": "idle",
            "type": "NKTW"
        },
        {
            "id": 5,
            "location": {
                "lat": 49.43987544371878,
                "lng": 7.777862383473409
            },
            "status": "idle",
            "type": "KTW"
        },
        {
            "id": 6,
            "location": {
                "lat": 49.43987544371878,
                "lng": 7.777862383473409
            },
            "status": "idle",
            "type": "KTW"
        },
        {
            "id": 7,
            "location": {
                "lat": 49.43987544371878,
                "lng": 7.777862383473409
            },
            "status": "idle",
            "type": "KTW"
        },
        {
            "id": 8,
            "location": {
                "lat": 49.43987544371878,
                "lng": 7.777862383473409
            },
            "status": "idle",
            "type": "KTW"
        },
        {
            "id": 9,
            "location": {
                "lat": 49.43987544371878,
                "lng": 7.777862383473409
            },
            "status": "idle",
            "type": "KTW"
        },
        {
            "id": 10,
            "location": {
                "lat": 49.43987544371878,
                "lng": 7.777862383473409
            },
            "status": "idle",
            "type": "KTW"
        },
        {
            "id": 11,
            "location": {
                "lat": 49.44282320695295,
                "lng": 7.758896144874136
            },
            "status": "idle",
            "type": "RTW"
        },
        {
            "id": 12,
            "location": {
                "lat": 49.44282320695295,
                "lng": 7.758896144874136
            },
            "status": "idle",
            "type": "RTW"
        },
        {
            "id": 13,
            "location": {
                "lat": 49.44282320695295,
                "lng": 7.758896144874136
            },
            "status": "idle",
            "type": "RTW"
        },
        {
            "id": 14,
            "location": {
                "lat": 49.44282320695295,
                "lng": 7.758896144874136
            },
            "status": "idle",
            "type": "NKTW"
        },
        {
            "id": 15,
            "location": {
                "lat": 49.44282320695295,
                "lng": 7.758896144874136
            },
            "status": "idle",
            "type": "KTW"
        },
        {
            "id": 16,
            "location": {
                "lat": 49.44282320695295,
                "lng": 7.758896144874136
            },
            "status": "idle",
            "type": "KTW"
        },
        {
            "id": 17,
            "location": {
                "lat": 49.44282320695295,
                "lng": 7.758896144874136
            },
            "status": "idle",
            "type": "KTW"
        },
        {
            "id": 18,
            "location": {
                "lat": 49.44282320695295,
                "lng": 7.758896144874136
            },
            "status": "idle",
            "type": "KTW"
        },
        {
            "id": 19,
            "location": {
                "lat": 49.44282320695295,
                "lng": 7.758896144874136
            },
            "status": "idle",
            "type": "KTW"
        },
        {
            "id": 20,
            "location": {
                "lat": 49.44282320695295,
                "lng": 7.758896144874136
            },
            "status": "idle",
            "type": "KTW"
        },
        {
            "id": 21,
            "location": {
                "lat": 49.43987544371878,
                "lng": 7.777862383473409
            },
            "status": "idle",
            "type": "NEF"
        },
        {
            "id": 22,
            "location": {
                "lat": 49.43987544371878,
                "lng": 7.777862383473409
            },
            "status": "idle",
            "type": "NEF"
        },
        {
            "id": 23,
            "location": {
                "lat": 49.44282320695295,
                "lng": 7.758896144874136
            },
            "status": "idle",
            "type": "NEF"
        },
        {
            "id": 24,
            "location": {
                "lat": 49.44282320695295,
                "lng": 7.758896144874136
            },
            "status": "idle",
            "type": "NEF"
        },
        {
            "id": 25,
            "location": {
                "lat": 49.4454841,
                "lng": 7.749821190659336
            },
            "status": "idle",
            "type": "RTW"
        },
        {
            "id": 26,
            "location": {
                "lat": 49.4454841,
                "lng": 7.749821190659336
            },
            "status": "idle",
            "type": "RTW"
        },
        {
            "id": 27,
            "location": {
                "lat": 49.4454841,
                "lng": 7.749821190659336
            },
            "status": "idle",
            "type": "NKTW"
        },
        {
            "id": 28,
            "location": {
                "lat": 49.4454841,
                "lng": 7.749821190659336
            },
            "status": "idle",
            "type": "KTW"
        },
        {
            "id": 29,
            "location": {
                "lat": 49.4454841,
                "lng": 7.749821190659336
            },
            "status": "idle",
            "type": "KTW"
        },
        {
            "id": 30,
            "location": {
                "lat": 49.4454841,
                "lng": 7.749821190659336
            },
            "status": "idle",
            "type": "KTW"
        },
        {
            "id": 31,
            "location": {
                "lat": 49.44963315,
                "lng": 7.779051943395011
            },
            "status": "idle",
            "type": "KTW"
        },
        {
            "id": 32,
            "location": {
                "lat": 49.44963315,
                "lng": 7.779051943395011
            },
            "status": "idle",
            "type": "KTW"
        },
        {
            "id": 33,
            "location": {
                "lat": 49.48860245,
                "lng": 7.724857606561068
            },
            "status": "idle",
            "type": "RTW"
        },
        {
            "id": 34,
            "location": {
                "lat": 49.48860245,
                "lng": 7.724857606561068
            },
            "status": "idle",
            "type": "KTW"
        },
        {
            "id": 35,
            "location": {
                "lat": 49.48860245,
                "lng": 7.724857606561068
            },
            "status": "idle",
            "type": "KTW"
        },
        {
            "id": 36,
            "location": {
                "lat": 49.44525922497954,
                "lng": 7.9097842609069
            },
            "status": "idle",
            "type": "RTW"
        },
        {
            "id": 37,
            "location": {
                "lat": 49.44525922497954,
                "lng": 7.9097842609069
            },
            "status": "idle",
            "type": "KTW"
        },
        {
            "id": 38,
            "location": {
                "lat": 49.4153299,
                "lng": 7.578469323841577
            },
            "status": "idle",
            "type": "NEF"
        },
        {
            "id": 39,
            "location": {
                "lat": 49.4153299,
                "lng": 7.578469323841577
            },
            "status": "idle",
            "type": "RTW"
        },
        {
            "id": 40,
            "location": {
                "lat": 49.4153299,
                "lng": 7.578469323841577
            },
            "status": "idle",
            "type": "RTW"
        },
        {
            "id": 41,
            "location": {
                "lat": 49.4153299,
                "lng": 7.578469323841577
            },
            "status": "idle",
            "type": "NKTW"
        },
        {
            "id": 42,
            "location": {
                "lat": 49.4153299,
                "lng": 7.578469323841577
            },
            "status": "idle",
            "type": "KTW"
        },
        {
            "id": 43,
            "location": {
                "lat": 49.4153299,
                "lng": 7.578469323841577
            },
            "status": "idle",
            "type": "KTW"
        },
        {
            "id": 44,
            "location": {
                "lat": 49.4153299,
                "lng": 7.578469323841577
            },
            "status": "idle",
            "type": "KTW"
        },
        {
            "id": 45,
            "location": {
                "lat": 49.55859595,
                "lng": 8.087365750000004
            },
            "status": "idle",
            "type": "RTW"
        },
        {
            "id": 46,
            "location": {
                "lat": 49.55859595,
                "lng": 8.087365750000004
            },
            "status": "idle",
            "type": "KTW"
        },
        {
            "id": 47,
            "location": {
                "lat": 49.630783,
                "lng": 7.808703552083329
            },
            "status": "idle",
            "type": "NEF"
        },
        {
            "id": 48,
            "location": {
                "lat": 49.630783,
                "lng": 7.808703552083329
            },
            "status": "idle",
            "type": "RTW"
        },
        {
            "id": 49,
            "location": {
                "lat": 49.630783,
                "lng": 7.808703552083329
            },
            "status": "idle",
            "type": "NKTW"
        },
        {
            "id": 50,
            "location": {
                "lat": 49.630783,
                "lng": 7.808703552083329
            },
            "status": "idle",
            "type": "KTW"
        },
        {
            "id": 51,
            "location": {
                "lat": 49.4921388,
                "lng": 7.58724185
            },
            "status": "idle",
            "type": "RTW"
        }
    ]
}